session_ID;packetId;car_ID;position_x;position_y;position_z;velocity_x;velocity_y;velocity_z;rotation_pitch;rotation_yaw;rotation_roll;relativeOrientationToNorth;angularVelocity_x;angularVelocity_y;angularVelocity_z;bodyHeight;engineRPM;gasLevel;gasCapacity;metersPerSecond;distance;turboBoost;oilPressure;waterTemperature;oilTemperature;lapCount;lapsInRace;currentLapTime;currentLapTime2;bestLapTime;lastLapTime;timeOfDayProgression;preRaceStartPositionOrQualiPos;numCarsAtPreRace;minAlertRPM;maxAlertRPM;calculatedMaxSpeed;flags;currentGear;suggestedGear;throttle;brake;roadPlane_x;roadPlane_y;roadPlane_z;roadPlaneDistance;tireRadius_fl;tireRadius_fr;tireRadius_rl;tireRadius_rr;tireSuspensionHeight_fl;tireSuspensionHeight_fr;tireSuspensionHeight_rl;tireSuspensionHeight_rr;tireSurfaceTemperature_fl;tireSurfaceTemperature_fr;tireSurfaceTemperature_rl;tireSurfaceTemperature_rr;wheelRevPerSecond_fl;wheelRevPerSecond_fr;wheelRevPerSecond_rl;wheelRevPerSecond_rr;clutchPedal;clutchEngagement;rpmFromClutchToGearbox;transmissionTopSpeed
a4e93d81-e2f6-47be-92a2-493d6a58a727;26796;203;158.88958740234375;0.8181034326553345;53.93527603149414;28.93092918395996;0.4039013981819153;-32.21955108642578;-0.06561340391635895;-0.34084200859069824;0.16097208857536316;0.9239099621772766;0.33998268842697144;0.33743083477020264;0.09872805327177048;0.08338546752929688;6928;100;100;43.283634185791016;174.90589288075785;0;6.578639984130859;85;110;3;3;404117;0;-1;21489;62460000;10;20;8400;9000;242;9;4;15;210;0;;;;58.90297317504883;;;;;0.176529660820961;0.23580339550971985;0.16930294036865234;0.22020834684371948;70.49529266357422;81.08295440673828;66.80602264404297;69.56706237792969;-146.55679321289062;-146.47714233398438;-143.7243194580078;-145.70057678222656;0;1;6928;3.000000238418579
a4e93d81-e2f6-47be-92a2-493d6a58a727;26797;203;158.88958740234375;0.8181034326553345;53.93527603149414;28.93092918395996;0.4039013981819153;-32.21955108642578;-0.06561340391635895;-0.34084200859069824;0.16097208857536316;0.9239099621772766;0.33998268842697144;0.33743083477020264;0.09872805327177048;0.08338546752929688;6928;100;100;43.283634185791016;175.62728678385437;0;6.578639984130859;85;110;3;3;404134;0;-1;21489;62460000;10;20;8400;9000;242;9;4;15;210;0;;;;58.90297317504883;;;;;0.176529660820961;0.23580339550971985;0.16930294036865234;0.22020834684371948;70.49529266357422;81.08295440673828;66.80602264404297;69.56706237792969;-146.55679321289062;-146.47714233398438;-143.7243194580078;-145.70057678222656;0;1;6928;3.000000238418579
a4e93d81-e2f6-47be-92a2-493d6a58a727;27202;203;0.00599996093660593;0.6050010323524475;95.14723205566406;31.173444747924805;0.03655935823917389;0.7733612656593323;-0.023705029860138893;-0.7157056331634521;0.031682975590229034;0.6972802877426147;0.006431098561733961;0.006348514463752508;0.017125464975833893;0.13239574432373047;7192;100;100;31.1811466217041;0.5196857770284017;0;6.769711017608643;85;110;1;3;17;0;-1;-1;62460416;10;20;8400;9000;242;9;3;15;255;0;;;;6.9243035316467285;;;;;0.14308293163776398;0.14217939972877502;0.17322427034378052;0.1734277755022049;59.747459411621094;59.72590255737305;59.70634460449219;59.72282409667969;-107.82804107666016;-107.82804107666016;-103.95331573486328;-103.98602294921875;0;1;7192;3.000000238418579
a4e93d81-e2f6-47be-92a2-493d6a58a727;27203;203;0.5268452167510986;0.605656623840332;95.16019439697266;31.217187881469727;0.04114606976509094;0.7669509053230286;-0.02377818152308464;-0.7156569361686707;0.03183070942759514;0.6973209977149963;0.007403910160064697;0.0067557343281805515;0.018533065915107727;0.1320185661315918;7201;100;100;31.224679946899414;1.0400971094767253;0;6.771713733673096;85;110;1;3;33;17;-1;-1;62460433;10;20;8400;9000;242;9;3;15;255;0;;;;6.931920051574707;;;;;0.14348936080932617;0.1423969268798828;0.17386451363563538;0.1735537052154541;59.746673583984375;59.72511291503906;59.70547866821289;59.721981048583984;-107.95843505859375;-107.95843505859375;-104.09899139404297;-104.13394927978516;0;1;7201;3.000000238418579
a4e93d81-e2f6-47be-92a2-493d6a58a727;27204;203;1.0484168529510498;0.6063951253890991;95.17303466796875;31.26064682006836;0.04626905173063278;0.7606919407844543;-0.023843087255954742;-0.7156067490577698;0.03197456896305084;0.6973637342453003;0.00782494805753231;0.0072024790570139885;0.01746358908712864;0.13155889511108398;7210;100;100;31.268043518066406;1.5612311681111652;0;6.773714542388916;85;110;1;3;50;34;-1;-1;62460450;10;20;8400;9000;242;9;3;15;255;0;;;;6.923250675201416;;;;;0.14427459239959717;0.14270156621932983;0.17446458339691162;0.17354059219360352;59.745887756347656;59.72432327270508;59.704612731933594;59.721134185791016;-108.09552001953125;-108.09552001953125;-104.24253845214844;-104.28009033203125;0;1;7210;3.000000238418579
a4e93d81-e2f6-47be-92a2-493d6a58a727;27205;203;1.5707343816757202;0.6072388887405396;95.18577575683594;31.304662704467773;0.05328170955181122;0.7544978857040405;-0.02387705072760582;-0.715553343296051;0.03210676088929176;0.6974112391471863;0.009457383304834366;0.0074696773663163185;0.013844020664691925;0.13105010986328125;7218;100;100;31.311878204345703;2.0830958048502604;0;6.775719165802002;85;110;1;3;67;50;-1;-1;62460466;10;20;8400;9000;242;9;3;15;255;0;;;;6.93174409866333;;;;;0.14490318298339844;0.1432046890258789;0.17501893639564514;0.1737280786037445;59.7451057434082;59.723533630371094;59.7037467956543;59.72028732299805;-108.2138900756836;-108.2138900756836;-104.39031982421875;-104.43009185791016;0;1;7218;3.000000238418579
a4e93d81-e2f6-47be-92a2-493d6a58a727;27206;203;2.093785047531128;0.6082159280776978;95.19840240478516;31.34816551208496;0.06178922578692436;0.7485663890838623;-0.023899156600236893;-0.7154982089996338;0.032243385910987854;0.6974607110023499;0.010875164531171322;0.00781708862632513;0.013159122318029404;0.13054466247558594;7226;100;100;31.355331420898438;2.6056846618652343;0;6.777749061584473;85;110;1;3;83;67;-1;-1;62460483;10;20;8400;9000;242;9;3;15;255;0;;;;6.93772029876709;;;;;0.14556002616882324;0.143758162856102;0.17556175589561462;0.17381900548934937;59.744319915771484;59.722740173339844;59.702880859375;59.71944046020508;-108.33641052246094;-108.33641052246094;-104.5357437133789;-104.57808685302734;0;1;7226;3.000000238418579
a4e93d81-e2f6-47be-92a2-493d6a58a727;27207;203;2.617574453353882;0.6093357801437378;95.21092987060547;31.39167594909668;0.07108042389154434;0.742712676525116;-0.02390524558722973;-0.715438723564148;0.0323859378695488;0.6975149512290955;0.012783907353878021;0.008151418529450893;0.012291048653423786;0.13020658493041992;7234;100;100;31.398685455322266;3.1289960861206056;0;6.779692649841309;85;110;1;3;100;84;-1;-1;62460500;10;20;8400;9000;242;9;3;15;255;0;;;;6.952576637268066;;;;;0.14593899250030518;0.1440761834383011;0.17589959502220154;0.17403733730316162;59.743534088134766;59.721946716308594;59.7020149230957;59.71859359741211;-108.45809173583984;-108.45809173583984;-104.6822509765625;-104.72697448730469;0;1;7234;3.000000238418579
a4e93d81-e2f6-47be-92a2-493d6a58a727;27208;203;3.142076015472412;0.6105872392654419;95.22338104248047;31.434104919433594;0.07931911200284958;0.737034797668457;-0.023907730355858803;-0.7153783440589905;0.032536059617996216;0.6975698471069336;0.013788212090730667;0.00837613269686699;0.012590989470481873;0.1297135353088379;7243;100;100;31.441057205200195;3.6530137062072754;0;6.781634330749512;85;110;1;3;117;100;-1;-1;62460516;10;20;8400;9000;242;9;3;15;255;0;;;;6.946113586425781;;;;;0.14683440327644348;0.14448070526123047;0.1762598156929016;0.17415589094161987;59.74274826049805;59.721153259277344;59.701148986816406;59.71774673461914;-108.60105895996094;-108.60105895996094;-104.82401275634766;-104.870361328125;0;1;7243;3.000000238418579
a4e93d81-e2f6-47be-92a2-493d6a58a727;27209;203;3.667316198348999;0.6120011210441589;95.23571014404297;31.477373123168945;0.0900409072637558;0.7312185764312744;-0.023877426981925964;-0.7153168320655823;0.03268186375498772;0.6976273059844971;0.016139021143317223;0.008163223043084145;0.009425293654203415;0.12909460067749023;7251;100;100;31.48417854309082;4.177750015258789;0;6.783575057983398;85;110;1;3;133;117;-1;-1;62460533;10;20;8400;9000;242;9;3;15;255;0;;;;6.970764636993408;;;;;0.14731702208518982;0.1453743726015091;0.17695921659469604;0.1743590384721756;59.74196243286133;59.720359802246094;59.700286865234375;59.71689987182617;-108.71599578857422;-108.71599578857422;-104.9714584350586;-105.01818084716797;0;1;7251;3.000000238418579
a4e93d81-e2f6-47be-92a2-493d6a58a727;27210;203;4.193282604217529;0.6136189699172974;95.24796295166016;31.52033805847168;0.10288140177726746;0.7255222201347351;-0.0238480381667614;-0.7152534127235413;0.0328495092689991;0.6976853013038635;0.017969630658626556;0.008378368802368641;0.011311100795865059;0.12851858139038086;7259;100;100;31.527128219604492;4.703202152252198;0;6.785510540008545;85;110;1;3;150;134;-1;-1;62460550;10;20;8400;9000;242;9;3;15;255;0;;;;6.992923259735107;;;;;0.1478121429681778;0.14604716002941132;0.17753325402736664;0.17472651600837708;59.74117660522461;59.719566345214844;59.699424743652344;59.7160530090332;-108.83629608154297;-108.83629608154297;-105.11651611328125;-105.16465759277344;0;1;7259;3.000000238418579
a4e93d81-e2f6-47be-92a2-493d6a58a727;27211;203;4.719966888427734;0.6154512166976929;95.26012420654297;31.562776565551758;0.11620939522981644;0.7197004556655884;-0.02382129244506359;-0.7151864767074585;0.03303617611527443;0.6977458596229553;0.019432438537478447;0.008538369089365005;0.013133079744875431;0.1279611587524414;7267;100;100;31.569459915161133;5.229359817504883;0;6.7874298095703125;85;110;1;3;167;150;-1;-1;62460566;10;20;8400;9000;242;9;3;15;255;0;;;;7.018021583557129;;;;;0.1483481228351593;0.1467002034187317;0.178031325340271;0.1750790923833847;59.740386962890625;59.718772888183594;59.69856262207031;59.71520233154297;-108.96590423583984;-108.96590423583984;-105.26042938232422;-105.30894470214844;0;1;7267;3.000000238418579
a4e93d81-e2f6-47be-92a2-493d6a58a727;27212;203;5.247369289398193;0.6175124645233154;95.27220153808594;31.60529327392578;0.13047710061073303;0.7137387990951538;-0.023795977234840393;-0.7151187062263489;0.033242978155612946;0.6978064775466919;0.021041829138994217;0.008578799664974213;0.014925961382687092;0.12758779525756836;7276;100;100;31.611963272094727;5.756225872039795;0;6.789348125457764;85;110;1;3;183;167;-1;-1;62460583;10;20;8400;9000;242;9;3;15;255;0;;;;7.024573802947998;;;;;0.1490413248538971;0.14700044691562653;0.1782650649547577;0.17520567774772644;59.73959732055664;59.717979431152344;59.69770050048828;59.714351654052734;-109.09248352050781;-109.09248352050781;-105.40470886230469;-105.4533462524414;0;1;7276;3.000000238418579
a4e93d81-e2f6-47be-92a2-493d6a58a727;27213;203;5.775486469268799;0.619786262512207;95.28416442871094;31.64729118347168;0.14407721161842346;0.7076699733734131;-0.02374563366174698;-0.7150506973266602;0.033449772745370865;0.6978681087493896;0.02312379516661167;0.008284038864076138;0.012792005203664303;0.12713098526000977;7285;100;100;31.653852462768555;6.283790079752604;0;6.791306972503662;85;110;1;3;200;184;-1;-1;62460600;10;20;8400;9000;242;9;3;15;255;0;;;;7.051062107086182;;;;;0.14931143820285797;0.14756876230239868;0.17890658974647522;0.1753828227519989;59.738807678222656;59.71718215942383;59.69683837890625;59.7135009765625;-109.22628784179688;-109.22628784179688;-105.54808044433594;-105.59619140625;0;1;7285;3.000000238418579
a4e93d81-e2f6-47be-92a2-493d6a58a727;27214;203;6.304304122924805;0.6223018765449524;95.29605102539062;31.689035415649414;0.15882566571235657;0.7017411589622498;-0.023698290809988976;-0.7149816155433655;0.03366841375827789;0.697929859161377;0.023923473432660103;0.008411109447479248;0.014011767692863941;0.1267223358154297;7294;100;100;31.695587158203125;6.812049865722656;0;6.793238639831543;85;110;1;3;217;200;-1;-1;62460616;10;20;8400;9000;242;9;3;15;255;0;;;;7.095210075378418;;;;;0.14945226907730103;0.14796632528305054;0.17920628190040588;0.17603884637355804;59.73801803588867;59.71638488769531;59.69597625732422;59.712650299072266;-109.3631591796875;-109.3631591796875;-105.68789672851562;-105.73683166503906;0;1;7294;3.000000238418579
a4e93d81-e2f6-47be-92a2-493d6a58a727;27215;203;6.833808898925781;0.6250673532485962;95.30784606933594;31.73033905029297;0.1735236495733261;0.695671558380127;-0.023680515587329865;-0.7149098515510559;0.03391193225979805;0.6979922652244568;0.023605158552527428;0.008647558279335499;0.018638545647263527;0.12633085250854492;7304;100;100;31.736814498901367;7.340996774037679;0;6.79516077041626;85;110;1;3;233;217;-1;-1;62460633;10;20;8400;9000;242;9;3;15;255;0;;;;7.106278419494629;;;;;0.15011847019195557;0.1481781005859375;0.17950648069381714;0.1762850284576416;59.73722839355469;59.7155876159668;59.69511413574219;59.71179962158203;-109.50835418701172;-109.50835418701172;-105.8244400024414;-105.87417602539062;0;1;7304;3.000000238418579
a4e93d81-e2f6-47be-92a2-493d6a58a727;27216;203;7.36401891708374;0.6280868053436279;95.31952667236328;31.772275924682617;0.18920156359672546;0.6892635822296143;-0.023642513900995255;-0.7148397564888;0.03414797782897949;0.6980538368225098;0.024633973836898804;0.008388048969209194;0.016267551109194756;0.12597370147705078;7313;100;100;31.77875518798828;7.870642693837484;0;6.797079086303711;85;110;1;3;250;234;-1;-1;62460650;10;20;8400;9000;242;9;3;15;255;0;;;;7.138619422912598;;;;;0.15031498670578003;0.14840734004974365;0.17992940545082092;0.17676040530204773;59.7364387512207;59.71479034423828;59.694252014160156;59.7109489440918;-109.63563537597656;-109.63563537597656;-105.96589660644531;-106.01512145996094;0;1;7313;3.000000238418579
a4e93d81-e2f6-47be-92a2-493d6a58a727;27217;203;7.894912242889404;0.6313695907592773;95.33110809326172;31.813405990600586;0.20467476546764374;0.6829836368560791;-0.023616496473550797;-0.7147679924964905;0.03438737615942955;0.6981164216995239;0.023944448679685593;0.00861555989831686;0.017591429874300957;0.1257772445678711;7322;100;100;31.819833755493164;8.400973256429037;0;6.798983097076416;85;110;1;3;267;250;-1;-1;62460666;10;20;8400;9000;242;9;3;15;255;0;;;;7.171090602874756;;;;;0.1503322273492813;0.14869165420532227;0.18036437034606934;0.17673516273498535;59.73564910888672;59.713993072509766;59.693389892578125;59.71009826660156;-109.7834243774414;-109.7834243774414;-106.10137939453125;-106.15115356445312;0;1;7322;3.000000238418579
a4e93d81-e2f6-47be-92a2-493d6a58a727;27218;203;8.426487922668457;0.634896457195282;95.34259796142578;31.85444450378418;0.21921733021736145;0.676779568195343;-0.02359830215573311;-0.714695394039154;0.03463299944996834;0.6981791257858276;0.023854652419686317;0.008799624629318714;0.018746882677078247;0.12566041946411133;7332;100;100;31.860877990722656;8.931987889607747;0;6.800893306732178;85;110;1;3;283;267;-1;-1;62460683;10;20;8400;9000;242;9;3;15;255;0;;;;7.210813045501709;;;;;0.1503123939037323;0.14872194826602936;0.18046832084655762;0.17705225944519043;59.73485565185547;59.71319580078125;59.692527770996094;59.70924758911133;-109.92948150634766;-109.92948150634766;-106.2374267578125;-106.28812408447266;0;1;7332;3.000000238418579
a4e93d81-e2f6-47be-92a2-493d6a58a727;27219;203;8.958736419677734;0.638660192489624;95.35399627685547;31.89507484436035;0.2330062836408615;0.6703962683677673;-0.023598281666636467;-0.7146210074424744;0.034886375069618225;0.6982428431510925;0.02301478013396263;0.009045801125466824;0.020977776497602463;0.12558507919311523;7343;100;100;31.901445388793945;9.463678646087645;0;6.802829265594482;85;110;1;3;300;284;-1;-1;62460700;10;20;8400;9000;242;9;3;15;255;0;;;;7.237733364105225;;;;;0.15060833096504211;0.14869388937950134;0.18038907647132874;0.17712682485580444;59.73406219482422;59.712398529052734;59.69166564941406;59.70839309692383;-110.08331298828125;-110.08331298828125;-106.37092590332031;-106.42233276367188;0;1;7343;3.000000238418579
a4e93d81-e2f6-47be-92a2-493d6a58a727;27220;203;9.491681098937988;0.6426370739936829;95.36507415771484;31.936513900756836;0.24629609286785126;0.654996931552887;-0.023506643250584602;-0.714522123336792;0.03505435585975647;0.6983385682106018;0.02397608384490013;0.013754005543887615;0.005807859357446432;0.1253647804260254;7352;100;100;31.942697525024414;9.996056938171385;0;6.8047871589660645;85;110;1;3;317;300;-1;-1;62460716;10;20;8400;9000;242;9;3;15;255;0;;;;7.276369571685791;;;;;0.15047821402549744;0.14918428659439087;0.18073028326034546;0.1772473156452179;59.733272552490234;59.71160125732422;59.69080352783203;59.70753860473633;-110.22042083740234;-110.22042083740234;-106.49745178222656;-106.5721435546875;0;1;7352;3.000000238418579
a4e93d81-e2f6-47be-92a2-493d6a58a727;27221;203;10.025318145751953;0.646857738494873;95.37584686279297;31.97805404663086;0.26088541746139526;0.6381073594093323;-0.023353952914476395;-0.7143862247467041;0.03515556454658508;0.6984776258468628;0.02417292259633541;0.020348574966192245;-0.005201681982725859;0.125396728515625;7361;100;100;31.983978271484375;10.529123242696125;0;6.8067216873168945;85;110;1;3;333;317;-1;-1;62460733;10;20;8400;9000;242;9;3;15;255;0;;;;7.316073417663574;;;;;0.15003031492233276;0.1494774967432022;0.18053828179836273;0.1774812638759613;59.732479095458984;59.7108039855957;59.68994140625;59.70668411254883;-110.35834503173828;-110.35834503173828;-106.61885070800781;-106.72491455078125;0;1;7361;3.000000238418579
a4e93d81-e2f6-47be-92a2-493d6a58a727;27222;203;10.559627532958984;0.6512758731842041;95.3863296508789;32.01877975463867;0.2723473906517029;0.6198949813842773;-0.023168113082647324;-0.714209794998169;0.0352102555334568;0.6986615061759949;0.02386287786066532;0.02778809890151024;-0.012173010036349297;0.12546920776367188;7372;100;100;32.02448272705078;11.062864621480305;0;6.8086466789245605;85;110;1;3;350;334;-1;-1;62460750;10;20;8400;9000;242;9;3;15;255;0;;;;7.353339195251465;;;;;0.14966285228729248;0.1497037708759308;0.17997188866138458;0.17790794372558594;59.731685638427734;59.71000671386719;59.68907928466797;59.70582962036133;-110.52066040039062;-110.52066040039062;-106.73460388183594;-106.87559509277344;0;1;7372;3.000000238418579
a4e93d81-e2f6-47be-92a2-493d6a58a727;27223;203;11.094621658325195;0.6558730602264404;95.39647674560547;32.05979919433594;0.28296151757240295;0.599436342716217;-0.02294760011136532;-0.7139873504638672;0.03522498533129692;0.6988956332206726;0.024345599114894867;0.03574230149388313;-0.018708329647779465;0.12556838989257812;7382;100;100;32.06515121459961;11.597283808390298;0;6.810598373413086;85;110;1;3;367;350;-1;-1;62460766;10;20;8400;9000;242;9;3;15;255;0;;;;7.37537145614624;;;;;0.1492910087108612;0.14996904134750366;0.17952945828437805;0.17810241878032684;59.73089599609375;59.70920944213867;59.68821716308594;59.70497512817383;-110.67101287841797;-110.67101287841797;-106.85144805908203;-107.02963256835938;0;1;7382;3.000000238418579
a4e93d81-e2f6-47be-92a2-493d6a58a727;27224;203;11.630300521850586;0.6606407761573792;95.40623474121094;32.100894927978516;0.29318517446517944;0.5762578248977661;-0.022678863257169724;-0.7137174010276794;0.03518948331475258;0.6991817951202393;0.025095975026488304;0.044251009821891785;-0.027325546368956566;0.1256861686706543;7392;100;100;32.10595703125;12.132383092244465;0;6.8125410079956055;85;110;1;3;383;367;-1;-1;62460783;10;20;8400;9000;242;9;3;15;255;0;;;;7.42585563659668;;;;;0.14839108288288116;0.150587260723114;0.17912161350250244;0.17837977409362793;59.730106353759766;59.708412170410156;59.687355041503906;59.70412063598633;-110.81781768798828;-110.81781768798828;-106.96753692626953;-107.185302734375;0;1;7392;3.000000238418579
a4e93d81-e2f6-47be-92a2-493d6a58a727;27225;203;12.166647911071777;0.6655651330947876;95.4156265258789;32.14133834838867;0.30192485451698303;0.5507634282112122;-0.022414695471525192;-0.7133923768997192;0.03514181077480316;0.6995241045951843;0.02480394020676613;0.05359897390007973;-0.02821005880832672;0.12581920623779297;7403;100;100;32.1459846496582;12.668149503072103;0;6.814485549926758;85;110;1;3;400;384;-1;-1;62460800;10;20;8400;9000;242;9;3;15;255;0;;;;7.482108116149902;;;;;0.1474173367023468;0.15097758173942566;0.17846781015396118;0.17912894487380981;59.72931671142578;59.70761489868164;59.68648910522461;59.70326614379883;-110.98074340820312;-110.98074340820312;-107.07798767089844;-107.33964538574219;0;1;7403;3.000000238418579
a4e93d81-e2f6-47be-92a2-493d6a58a727;27226;203;12.703652381896973;0.6706305146217346;95.42460632324219;32.18160629272461;0.30924317240715027;0.521958589553833;-0.02217567339539528;-0.7130132913589478;0.035090114921331406;0.6999208331108093;0.023477870970964432;0.06323261559009552;-0.026678528636693954;0.12586545944213867;7414;100;100;32.185890197753906;13.204581006368;0;6.816425323486328;85;110;1;3;417;400;-1;-1;62460816;10;20;8400;9000;242;9;3;15;255;0;;;;7.50462532043457;;;;;0.1471024751663208;0.1513449251651764;0.1778472661972046;0.17951470613479614;59.72853088378906;59.706817626953125;59.68562316894531;59.702415466308594;-111.1478271484375;-111.1478271484375;-107.18534088134766;-107.49124145507812;0;1;7414;3.000000238418579
a4e93d81-e2f6-47be-92a2-493d6a58a727;27227;203;13.24135971069336;0.6758468151092529;95.43302917480469;32.223541259765625;0.31841546297073364;0.4885040521621704;-0.02188614010810852;-0.7125793099403381;0.03498929366469383;0.7003767490386963;0.024620678275823593;0.07257707417011261;-0.03541824594140053;0.12587308883666992;7423;100;100;32.227359771728516;13.741703669230143;0;6.818337917327881;85;110;1;3;433;417;-1;-1;62460833;10;20;8400;9000;242;9;3;15;255;0;;;;7.533701419830322;;;;;0.14658939838409424;0.15191754698753357;0.17732366919517517;0.1799902319908142;59.727752685546875;59.706024169921875;59.68475341796875;59.70156478881836;-111.27180480957031;-111.27180480957031;-107.30290222167969;-107.65260314941406;0;1;7423;3.000000238418579
a4e93d81-e2f6-47be-92a2-493d6a58a727;27228;203;13.779753684997559;0.6812182664871216;95.44087982177734;32.26478958129883;0.32751771807670593;0.4516642093658447;-0.021564193069934845;-0.7120905518531799;0.034849636256694794;0.7008906006813049;0.0251318272203207;0.08227553963661194;-0.0417732410132885;0.12585210800170898;7432;100;100;32.26823425292969;14.279507573445638;0;6.820258140563965;85;110;1;3;450;434;-1;-1;62460850;10;20;8400;9000;242;9;3;15;255;0;;;;7.586915969848633;;;;;0.14594022929668427;0.1529904007911682;0.17656658589839935;0.18038439750671387;59.72697830200195;59.705230712890625;59.68388366699219;59.70071792602539;-111.41276550292969;-111.41276550292969;-107.4162826538086;-107.81085205078125;0;1;7432;3.000000238418579
a4e93d81-e2f6-47be-92a2-493d6a58a727;27229;203;14.318846702575684;0.6867318153381348;95.44810485839844;32.30625915527344;0.33623865246772766;0.41102084517478943;-0.0212329663336277;-0.7115410566329956;0.03471064940094948;0.7014654278755188;0.027125805616378784;0.09224105626344681;-0.042802855372428894;0.12599897384643555;7441;100;100;32.30922317504883;14.817994626363118;0;6.822146415710449;85;110;1;3;467;450;-1;-1;62460866;10;20;8400;9000;242;9;3;15;255;0;;;;7.660760402679443;;;;;0.144907146692276;0.15387843549251556;0.17549541592597961;0.18106207251548767;59.72621154785156;59.70444107055664;59.683013916015625;59.69987487792969;-111.54641723632812;-111.54641723632812;-107.53218841552734;-107.97413635253906;0;1;7441;3.000000238418579
a4e93d81-e2f6-47be-92a2-493d6a58a727;27230;203;14.858610153198242;0.6923563480377197;95.45482635498047;32.346466064453125;0.3423655331134796;0.3725132942199707;-0.02099025249481201;-0.7109483480453491;0.03465878963470459;0.7020760774612427;0.027901919558644295;0.09924647957086563;-0.028143180534243584;0.12608909606933594;7451;100;100;32.34906768798828;15.357145754496257;0;6.824042797088623;85;110;1;3;483;467;-1;-1;62460883;10;20;8400;9000;242;9;3;15;255;0;;;;7.690485954284668;;;;;0.14469747245311737;0.15425850450992584;0.17450472712516785;0.1815064400434494;59.725433349609375;59.70364761352539;59.68214416503906;59.69903564453125;-111.71056365966797;-111.71056365966797;-107.64942169189453;-108.12310791015625;0;1;7451;3.000000238418579
a4e93d81-e2f6-47be-92a2-493d6a58a727;27231;203;15.399083137512207;0.6981180906295776;95.46107482910156;32.388099670410156;0.35094505548477173;0.33860644698143005;-0.02082875743508339;-0.7103465795516968;0.03471290320158005;0.7026872038841248;0.03014780580997467;0.09975658357143402;-0.012298785150051117;0.12611818313598633;7460;100;100;32.3903694152832;15.896985244750976;0;6.825921535491943;85;110;1;3;500;484;-1;-1;62460900;10;20;8400;9000;242;9;3;15;255;0;;;;7.736485481262207;;;;;0.1440596580505371;0.15467803180217743;0.17448239028453827;0.18166086077690125;59.72465133666992;59.70285415649414;59.6812744140625;59.698204040527344;-111.83345794677734;-111.83345794677734;-107.78981018066406;-108.2655258178711;0;1;7460;3.000000238418579
a4e93d81-e2f6-47be-92a2-493d6a58a727;27232;203;15.940218925476074;0.7040546536445618;95.46697235107422;32.428348541259766;0.36040210723876953;0.3097768723964691;-0.020829297602176666;-0.7097692489624023;0.03491632640361786;0.703260064125061;0.02867373637855053;0.0950009822845459;0.014229894615709782;0.12619686126708984;7470;100;100;32.43047332763672;16.437493133544923;0;6.8278279304504395;85;110;1;3;517;500;-1;-1;62460916;10;20;8400;9000;242;9;3;15;255;0;;;;7.812057018280029;;;;;0.14337792992591858;0.1548776924610138;0.17448431253433228;0.1818273961544037;59.72386169433594;59.70206069946289;59.68040466308594;59.6973762512207;-111.9906997680664;-111.9906997680664;-107.93506622314453;-108.38500213623047;0;1;7470;3.000000238418579
a4e93d81-e2f6-47be-92a2-493d6a58a727;27233;203;16.482011795043945;0.7101631164550781;95.47261047363281;32.46846008300781;0.36925965547561646;0.28552407026290894;-0.021048329770565033;-0.7092435359954834;0.03531969338655472;0.7037635445594788;0.026152122765779495;0.08518064022064209;0.05005454644560814;0.1261301040649414;7481;100;100;32.47039031982422;16.978666305541992;0;6.829723834991455;85;110;1;3;533;517;-1;-1;62460933;10;20;8400;9000;242;1033;3;15;255;0;;;;7.868866443634033;;;;;0.1435430943965912;0.15449616312980652;0.17480173707008362;0.18196028470993042;59.72307205200195;59.70126724243164;59.679534912109375;59.696556091308594;-112.14978790283203;-112.14978790283203;-108.08953094482422;-108.4911880493164;0;1;7481;3.000000238418579
a4e93d81-e2f6-47be-92a2-493d6a58a727;27234;203;17.02448081970215;0.7164642214775085;95.4778823852539;32.50943374633789;0.3799304962158203;0.2600573003292084;-0.02139771357178688;-0.7087885141372681;0.03583955392241478;0.7041851878166199;0.023676132783293724;0.07281026989221573;0.07135345041751862;0.12630224227905273;7490;100;100;32.51131057739258;17.520521481831867;0;6.8316545486450195;85;110;1;3;550;534;-1;-1;62460950;10;20;8400;9000;242;1033;3;15;255;0;;;;7.920841217041016;;;;;0.1439117044210434;0.1536691039800644;0.1750667691230774;0.181536465883255;59.722286224365234;59.700469970703125;59.67866897583008;59.69573974609375;-112.2821044921875;-112.2821044921875;-108.25257873535156;-108.59432983398438;0;1;7490;3.000000238418579
a4e93d81-e2f6-47be-92a2-493d6a58a727;27235;203;17.56761932373047;0.7228907942771912;95.482666015625;32.54978561401367;0.38723310828208923;0.23260070383548737;-0.02178875543177128;-0.7084022164344788;0.0363968126475811;0.7045332193374634;0.02193032018840313;0.06076308712363243;0.07845939695835114;0.12652349472045898;7500;100;100;32.551483154296875;18.063046201070147;0;6.8335652351379395;85;110;1;3;567;550;-1;-1;62460966;10;20;8400;9000;242;9;3;15;255;0;;;;7.9964599609375;;;;;0.1439768373966217;0.15329022705554962;0.17563611268997192;0.18047118186950684;59.721500396728516;59.69967269897461;59.677799224853516;59.694923400878906;-112.43408203125;-112.43408203125;-108.4136962890625;-108.69816589355469;0;1;7500;3.000000238418579
a4e93d81-e2f6-47be-92a2-493d6a58a727;27236;203;18.111446380615234;0.7294154167175293;95.4869384765625;32.59068298339844;0.3937612473964691;0.2046964019536972;-0.022193731740117073;-0.7080755233764648;0.036989085376262665;0.7048179507255554;0.022546151652932167;0.05035557597875595;0.08290139585733414;0.12672996520996094;7509;100;100;32.59229278564453;18.60625108083089;0;6.8354716300964355;85;110;1;3;583;567;-1;-1;62460983;10;20;8400;9000;242;9;3;15;255;0;;;;8.10483169555664;;;;;0.1438291221857071;0.15282781422138214;0.17585259675979614;0.18014103174209595;59.7207145690918;59.69887924194336;59.67692947387695;59.6941032409668;-112.57252502441406;-112.57252502441406;-108.57589721679688;-108.81259155273438;0;1;7509;3.000000238418579
a4e93d81-e2f6-47be-92a2-493d6a58a727;27237;203;18.655941009521484;0.7360550165176392;95.49072265625;32.630760192871094;0.4001867175102234;0.17661824822425842;-0.02264907769858837;-0.7077997326850891;0.03762219101190567;0.7050469517707825;0.020693760365247726;0.04141058772802353;0.09094185382127762;0.12669754028320312;7519;100;100;32.632240295410156;19.15012175242106;0;6.837387561798096;85;110;1;3;600;584;-1;-1;62461000;10;20;8400;9000;242;9;3;15;255;0;;;;8.176145553588867;;;;;0.1447611153125763;0.1523195207118988;0.17600306868553162;0.17966300249099731;59.71992492675781;59.69808578491211;59.67605972290039;59.69327926635742;-112.7287368774414;-112.7287368774414;-108.72813415527344;-108.92235565185547;0;1;7519;3.000000238418579
a4e93d81-e2f6-47be-92a2-493d6a58a727;27238;203;19.201139450073242;0.742831826210022;95.49397277832031;32.672611236572266;0.4093470871448517;0.1485215574502945;-0.02306968905031681;-0.707572340965271;0.038244254887104034;0.7052280902862549;0.021697010844945908;0.033126093447208405;0.08728993684053421;0.12685585021972656;7527;100;100;32.67411422729492;19.694690322875978;0;6.839284420013428;85;110;1;3;617;600;-1;-1;62461016;10;20;8400;9000;242;9;3;15;255;0;;;;8.23388957977295;;;;;0.14488041400909424;0.15147261321544647;0.17694047093391418;0.17893312871456146;59.719139099121094;59.69729232788086;59.67518997192383;59.69245147705078;-112.8374252319336;-112.8374252319336;-108.88865661621094;-109.04537963867188;0;1;7527;3.000000238418579
a4e93d81-e2f6-47be-92a2-493d6a58a727;27239;203;19.74698829650879;0.7497088313102722;95.4966812133789;32.711910247802734;0.41507837176322937;0.12213738262653351;-0.02344953455030918;-0.7073860168457031;0.038807425647974014;0.7053716778755188;0.019288020208477974;0.026449095457792282;0.07907707244157791;0.1271514892578125;7537;100;100;32.71333312988281;20.23991254170736;0;6.841221809387207;85;110;1;3;633;617;-1;-1;62461033;10;20;8400;9000;242;9;3;15;255;0;;;;8.326311111450195;;;;;0.1449102908372879;0.15113653242588043;0.17702993750572205;0.17802956700325012;59.71834945678711;59.696495056152344;59.67431640625;59.691619873046875;-113.00910186767578;-113.00910186767578;-109.03241729736328;-109.15758514404297;0;1;7537;3.000000238418579
a4e93d81-e2f6-47be-92a2-493d6a58a727;27240;203;20.293519973754883;0.7566623687744141;95.49894714355469;32.752567291259766;0.4204619228839874;0.09774035215377808;-0.023809686303138733;-0.7072298526763916;0.03937331214547157;0.7054848670959473;0.02056259661912918;0.021218767389655113;0.07778464257717133;0.12723827362060547;7547;100;100;32.753990173339844;20.785812377929688;0;6.843140602111816;85;110;1;3;650;634;-1;-1;62461050;10;20;8400;9000;242;9;3;15;255;0;;;;8.437180519104004;;;;;0.14492167532444;0.1509767770767212;0.17713525891304016;0.17777405679225922;59.717559814453125;59.695701599121094;59.67344284057617;59.6907844543457;-113.14131164550781;-113.14131164550781;-109.18220520019531;-109.28443145751953;0;1;7547;3.000000238418579
a4e93d81-e2f6-47be-92a2-493d6a58a727;27241;203;20.84073257446289;0.7637493014335632;95.50082397460938;32.793006896972656;0.4284803569316864;0.07453767955303192;-0.02419026754796505;-0.7070953249931335;0.039963625371456146;0.7055736780166626;0.020375845953822136;0.017189359292387962;0.08173421770334244;0.12726879119873047;7555;100;100;32.79442596435547;21.332386144002278;0;6.84509801864624;85;110;1;3;667;650;-1;-1;62461066;10;20;8400;9000;242;9;3;15;255;0;;;;8.494245529174805;;;;;0.14582706987857819;0.15020498633384705;0.17704126238822937;0.17761677503585815;59.71677017211914;59.694908142089844;59.672569274902344;59.689945220947266;-113.27238464355469;-113.27238464355469;-109.32665252685547;-109.41024780273438;0;1;7555;3.000000238418579
a4e93d81-e2f6-47be-92a2-493d6a58a727;27242;203;21.388620376586914;0.7709589004516602;95.50225067138672;32.8333625793457;0.4363226890563965;0.05243784561753273;-0.024520864710211754;-0.7069863080978394;0.040510550141334534;0.7056400775909424;0.02040138468146324;0.013108748942613602;0.07392653077840805;0.12708663940429688;7564;100;100;32.83486557006836;21.879633903503418;0;6.847026348114014;85;110;1;3;683;667;-1;-1;62461083;10;20;8400;9000;242;9;3;15;255;0;;;;8.556828498840332;;;;;0.146222785115242;0.14998622238636017;0.17797964811325073;0.17718516290187836;59.71598434448242;59.69411087036133;59.671695709228516;59.68910217285156;-113.4059066772461;-113.4059066772461;-109.47088623046875;-109.53636169433594;0;1;7564;3.000000238418579
a4e93d81-e2f6-47be-92a2-493d6a58a727;27243;203;21.93718147277832;0.7783427834510803;95.5032958984375;32.87388229370117;0.44690239429473877;0.031995296478271484;-0.024820398539304733;-0.7068931460380554;0.04102431237697601;0.7056934833526611;0.019879931584000587;0.01049632579088211;0.06858392059803009;0.12723350524902344;7572;100;100;32.87546920776367;22.427558390299478;0;6.848964691162109;85;110;1;3;700;684;-1;-1;62461100;10;20;8400;9000;242;1033;3;15;255;0;;;;8.658697128295898;;;;;0.1462424397468567;0.14988882839679718;0.17791685461997986;0.1767864227294922;59.71519470214844;59.69331741333008;59.67082214355469;59.688255310058594;-113.52904510498047;-113.52904510498047;-109.61177825927734;-109.66558074951172;0;1;7572;3.000000238418579
a4e93d81-e2f6-47be-92a2-493d6a58a727;27244;203;22.486417770385742;0.7858537435531616;95.50404357910156;32.91385269165039;0.45486539602279663;0.013535067439079285;-0.025130100548267365;-0.7068081498146057;0.041563041508197784;0.7057359218597412;0.02091727778315544;0.00885247252881527;0.07161129266023636;0.1271047592163086;7581;100;100;32.9155387878418;22.976150703430175;0;6.850864410400391;85;110;1;3;717;700;-1;-1;62461116;10;20;8400;9000;242;1033;3;15;255;0;;;;8.74372386932373;;;;;0.14694274961948395;0.14979302883148193;0.17785578966140747;0.1767052710056305;59.71440124511719;59.69252395629883;59.669952392578125;59.687408447265625;-113.66593933105469;-113.66593933105469;-109.75077819824219;-109.79759216308594;0;1;7581;3.000000238418579
a4e93d81-e2f6-47be-92a2-493d6a58a727;27245;203;23.036344528198242;0.7935434579849243;95.50448608398438;32.954566955566406;0.4663194715976715;-0.00409230962395668;-0.025426378473639488;-0.7067292928695679;0.04211154580116272;0.7057720422744751;0.022719062864780426;0.007385652046650648;0.07134696841239929;0.12691402435302734;7588;100;100;32.95636749267578;23.52542349497477;0;6.852792263031006;85;110;1;3;733;717;-1;-1;62461133;10;20;8400;9000;242;9;3;15;255;0;;;;8.804939270019531;;;;;0.14751359820365906;0.1493789702653885;0.1783914566040039;0.17673151195049286;59.7136116027832;59.69173049926758;59.66908264160156;59.686561584472656;-113.77448272705078;-113.77448272705078;-109.89257049560547;-109.9341049194336;0;1;7588;3.000000238418579
a4e93d81-e2f6-47be-92a2-493d6a58a727;27246;203;23.586925506591797;0.8014259338378906;95.50460815429688;32.993934631347656;0.47777071595191956;-0.020575612783432007;-0.025698469951748848;-0.7066583633422852;0.04262792691588402;0.7058021426200867;0.02189929038286209;0.0063336011953651905;0.06659198552370071;0.1269664764404297;7597;100;100;32.99592208862305;24.075355529785156;0;6.854708194732666;85;110;1;3;750;734;-1;-1;62461150;10;20;8400;9000;242;9;3;15;255;0;;;;8.893950462341309;;;;;0.1476525068283081;0.14952301979064941;0.1787494719028473;0.1758703589439392;59.71282196044922;59.69093322753906;59.668212890625;59.68571090698242;-113.9131851196289;-113.9131851196289;-110.02574157714844;-110.06232452392578;0;1;7597;3.000000238418579
a4e93d81-e2f6-47be-92a2-493d6a58a727;27247;203;24.1381893157959;0.809413492679596;95.50408935546875;33.033836364746094;0.485740602016449;-0.05248621106147766;-0.025791220366954803;-0.7065357565879822;0.04299313575029373;0.7058991193771362;0.025631709024310112;0.015461972914636135;0.03819582611322403;0.1268310546875;7605;100;100;33.03586959838867;24.62595335642497;0;6.8565850257873535;85;110;1;3;767;750;-1;-1;62461166;10;20;8400;9000;242;9;3;15;255;0;;;;9.003523826599121;;;;;0.14733506739139557;0.14985886216163635;0.17877352237701416;0.17635884881019592;59.712032318115234;59.69013977050781;59.66734313964844;59.68486022949219;-114.03536224365234;-114.03536224365234;-110.1405029296875;-110.22352600097656;0;1;7605;3.000000238418579
a4e93d81-e2f6-47be-92a2-493d6a58a727;27248;203;24.69009780883789;0.8175682425498962;95.50303649902344;33.072811126708984;0.4955107271671295;-0.08403302729129791;-0.025809921324253082;-0.7063523530960083;0.04326795041561127;0.7060651779174805;0.02585471235215664;0.026481108739972115;0.023825744166970253;0.126617431640625;7615;100;100;33.07504653930664;25.177204132080078;0;6.858462333679199;85;110;1;3;783;767;-1;-1;62461183;10;20;8400;9000;242;9;3;15;255;0;;;;9.077546119689941;;;;;0.14771315455436707;0.15025684237480164;0.1783047914505005;0.17680376768112183;59.71124267578125;59.68934631347656;59.66647720336914;59.68400955200195;-114.17725372314453;-114.17725372314453;-110.24317169189453;-110.37879943847656;0;1;7615;3.000000238418579
a4e93d81-e2f6-47be-92a2-493d6a58a727;27249;203;25.242698669433594;0.825897753238678;95.50143432617188;33.113250732421875;0.5070397257804871;-0.11589093506336212;-0.02572813630104065;-0.7061057686805725;0.04346512630581856;0.7063026428222656;0.02940591797232628;0.037190474569797516;0.008284838870167732;0.12640857696533203;7622;100;100;33.11568832397461;25.72913227081299;0;6.860300540924072;85;110;1;3;800;784;-1;-1;62461200;10;20;8400;9000;242;9;3;15;255;0;;;;9.128945350646973;;;;;0.1472204625606537;0.1504645049571991;0.17885375022888184;0.17736101150512695;59.71045684814453;59.68855285644531;59.665611267089844;59.68315505981445;-114.28121948242188;-114.28121948242188;-110.3563232421875;-110.54460906982422;0;1;7622;3.000000238418579
a4e93d81-e2f6-47be-92a2-493d6a58a727;27250;203;25.795907974243164;0.8344231843948364;95.49935150146484;33.15119552612305;0.5175024271011353;-0.14549100399017334;-0.02562207169830799;-0.7058030962944031;0.043594952672719955;0.7066009640693665;0.02725410833954811;0.047524452209472656;9.591435082256794e-05;0.12649250030517578;7632;100;100;33.153934478759766;26.281697845458986;0;6.862171173095703;85;110;1;3;817;800;-1;-1;62461216;10;20;8400;9000;242;9;3;15;255;0;;;;9.223758697509766;;;;;0.14643442630767822;0.15105895698070526;0.17836570739746094;0.1776876598596573;59.70966720581055;59.6877555847168;59.66474533081055;59.68230056762695;-114.44713592529297;-114.44713592529297;-110.45540618896484;-110.69000244140625;0;1;7632;3.000000238418579
a4e93d81-e2f6-47be-92a2-493d6a58a727;27251;203;26.34975814819336;0.8430835604667664;95.49684143066406;33.18962097167969;0.5248558521270752;-0.17614726722240448;-0.0255417563021183;-0.7054408192634583;0.04373763129115105;0.7069568634033203;0.027608182281255722;0.05743221938610077;0.0030088808853179216;0.12647247314453125;7643;100;100;33.19257354736328;26.834907404581706;0;6.864022731781006;85;110;1;3;833;817;-1;-1;62461233;10;20;8400;9000;242;9;3;15;255;0;;;;9.334625244140625;;;;;0.14560085535049438;0.15161718428134918;0.17785337567329407;0.17856281995773315;59.70887756347656;59.68696212768555;59.663875579833984;59.68144989013672;-114.59771728515625;-114.59771728515625;-110.5601806640625;-110.84182739257812;0;1;7643;3.000000238418579
a4e93d81-e2f6-47be-92a2-493d6a58a727;27252;203;26.904233932495117;0.8519050478935242;95.49394989013672;33.2279052734375;0.5330097079277039;-0.20599021017551422;-0.02554929256439209;-0.7050317525863647;0.043939873576164246;0.7073518633842468;0.026355737820267677;0.06525833904743195;0.015175549313426018;0.12635040283203125;7654;100;100;33.231201171875;27.38876075744629;0;6.865922927856445;85;110;1;3;850;834;-1;-1;62461250;10;20;8400;9000;242;9;3;15;255;0;;;;9.383566856384277;;;;;0.14591196179389954;0.15162287652492523;0.17738673090934753;0.17914968729019165;59.70808792114258;59.6861686706543;59.66300582885742;59.680599212646484;-114.7488021850586;-114.7488021850586;-110.66824340820312;-110.9845199584961;0;1;7654;3.000000238418579
a4e93d81-e2f6-47be-92a2-493d6a58a727;27253;203;27.459383010864258;0.8609039783477783;95.49055480957031;33.267852783203125;0.543645441532135;-0.23760253190994263;-0.025546107441186905;-0.7045932412147522;0.04413233697414398;0.7077770829200745;0.02718929573893547;0.07011596858501434;0.013253683224320412;0.12623119354248047;7661;100;100;33.27153396606445;27.943286323547362;0;6.867778778076172;85;110;1;3;867;850;-1;-1;62461266;10;20;8400;9000;242;9;3;15;255;0;;;;9.476073265075684;;;;;0.14540734887123108;0.15240007638931274;0.17759978771209717;0.17914406955242157;59.707305908203125;59.68537139892578;59.662132263183594;59.679752349853516;-114.85906982421875;-114.85906982421875;-110.79216003417969;-111.1305160522461;0;1;7661;3.000000238418579
a4e93d81-e2f6-47be-92a2-493d6a58a727;27254;203;28.015172958374023;0.8700988292694092;95.48676300048828;33.306819915771484;0.554505467414856;-0.26680323481559753;-0.025619613006711006;-0.7041364908218384;0.04438980668783188;0.7082125544548035;0.026604270562529564;0.07288742810487747;0.025140130892395973;0.12625503540039062;7670;100;100;33.310977935791016;28.49846928914388;0;6.8696417808532715;85;110;1;3;883;867;-1;-1;62461283;10;20;8400;9000;242;9;3;15;255;0;;;;9.586356163024902;;;;;0.1447063684463501;0.1526840180158615;0.17740511894226074;0.17966771125793457;59.70651626586914;59.68457794189453;59.661258697509766;59.67890548706055;-114.9974594116211;-114.9974594116211;-110.91670989990234;-111.26673889160156;0;1;7670;3.000000238418579
a4e93d81-e2f6-47be-92a2-493d6a58a727;27255;203;28.571582794189453;0.879460334777832;95.48255157470703;33.344810485839844;0.5628173351287842;-0.29784080386161804;-0.02579673007130623;-0.7036666870117188;0.04471731185913086;0.7086524963378906;0.024025745689868927;0.07486668974161148;0.03981997072696686;0.12624359130859375;7681;100;100;33.349361419677734;29.05429197947184;0;6.871507167816162;85;110;1;3;900;884;-1;-1;62461300;10;20;8400;9000;242;9;3;15;255;0;;;;9.666603088378906;;;;;0.1453239470720291;0.15288211405277252;0.17669841647148132;0.1795482039451599;59.70572280883789;59.683780670166016;59.66038513183594;59.678062438964844;-115.15900421142578;-115.15900421142578;-111.03627014160156;-111.39385223388672;0;1;7681;3.000000238418579
a4e93d81-e2f6-47be-92a2-493d6a58a727;27256;203;29.12869644165039;0.8889702558517456;95.47775268554688;33.385494232177734;0.572989284992218;-0.33312201499938965;-0.025949101895093918;-0.7031883001327515;0.04506117105484009;0.7090998888015747;0.027763374149799347;0.07578454911708832;0.0390368290245533;0.126251220703125;7687;100;100;33.3906135559082;29.610802205403644;0;6.873361110687256;85;110;1;3;917;900;-1;-1;62461316;10;20;8400;9000;242;9;3;15;255;0;;;;9.729284286499023;;;;;0.14535440504550934;0.15258827805519104;0.17681168019771576;0.17973119020462036;59.70494079589844;59.682987213134766;59.65951156616211;59.677223205566406;-115.2469482421875;-115.2469482421875;-111.17589569091797;-111.54000854492188;0;1;7687;3.000000238418579
a4e93d81-e2f6-47be-92a2-493d6a58a727;27257;203;29.686433792114258;0.8986300826072693;95.47227478027344;33.423553466796875;0.5815367698669434;-0.37194350361824036;-0.026062704622745514;-0.7027005553245544;0.045344434678554535;0.7095611095428467;0.02626200206577778;0.07771805673837662;0.030526813119649887;0.12641525268554688;7696;100;100;33.42919921875;30.167955525716145;0;6.875169277191162;85;110;1;3;933;917;-1;-1;62461333;10;20;8400;9000;242;9;3;15;255;0;;;;9.858938217163086;;;;;0.14448930323123932;0.15325722098350525;0.17674438655376434;0.1793636977672577;59.70415496826172;59.68218994140625;59.65863800048828;59.67638397216797;-115.40257263183594;-115.40257263183594;-111.29875946044922;-111.66952514648438;0;1;7696;3.000000238418579
a4e93d81-e2f6-47be-92a2-493d6a58a727;27258;203;30.244800567626953;0.9083940982818604;95.46615600585938;33.46150588989258;0.58734530210495;-0.41311782598495483;-0.026199687272310257;-0.7021893858909607;0.045644812285900116;0.7100425958633423;0.026365427300333977;0.08167435973882675;0.03377861902117729;0.12648963928222656;7707;100;100;33.4677734375;30.72575174967448;0;6.876969337463379;85;110;1;3;950;934;-1;-1;62461350;10;20;8400;9000;242;9;3;15;255;0;;;;10.002001762390137;;;;;0.1437264382839203;0.153715118765831;0.17627111077308655;0.17987239360809326;59.703369140625;59.681396484375;59.65776443481445;59.6755485534668;-115.55532836914062;-115.55532836914062;-111.41725158691406;-111.80779266357422;0;1;7707;3.000000238418579
a4e93d81-e2f6-47be-92a2-493d6a58a727;27259;203;30.803796768188477;0.9182723760604858;95.45933532714844;33.499481201171875;0.5932762622833252;-0.45833438634872437;-0.026374129578471184;-0.7016477584838867;0.045963648706674576;0.7105507850646973;0.02552954852581024;0.08653750270605087;0.03833770006895065;0.12658309936523438;7717;100;100;33.50638198852539;31.284191449483234;0;6.878782272338867;85;110;1;3;967;950;-1;-1;62461366;10;20;8400;9000;242;9;3;15;255;0;;;;10.06042194366455;;;;;0.1443115919828415;0.15345966815948486;0.17559266090393066;0.17985959351062775;59.70258712768555;59.680606842041016;59.656890869140625;59.67471694946289;-115.70137786865234;-115.70137786865234;-111.53298950195312;-111.94503021240234;0;1;7717;3.000000238418579
a4e93d81-e2f6-47be-92a2-493d6a58a727;27260;203;31.36346435546875;0.9282320737838745;95.45159149169922;33.538970947265625;0.5995367169380188;-0.5085821747779846;-0.026424143463373184;-0.7010805606842041;0.04618130996823311;0.7110943794250488;0.028421996161341667;0.09126151353120804;0.01894855499267578;0.12656402587890625;7724;100;100;33.54676055908203;31.843304125467935;0;6.88052225112915;85;110;1;3;983;967;-1;-1;62461383;10;20;8400;9000;242;9;3;15;255;0;;;;10.116189956665039;;;;;0.14360739290714264;0.15347185730934143;0.17636969685554504;0.1799115091562271;59.70182418823242;59.67981719970703;59.6560173034668;59.673885345458984;-115.80875396728516;-115.80875396728516;-111.65827178955078;-112.09561157226562;0;1;7724;3.000000238418579
a4e93d81-e2f6-47be-92a2-493d6a58a727;27261;203;31.923721313476562;0.9383038282394409;95.44293212890625;33.575748443603516;0.6050350666046143;-0.5606151223182678;-0.02641976624727249;-0.7004801630973816;0.04629342257976532;0.7116786241531372;0.025153733789920807;0.09768988192081451;0.005125975236296654;0.12684059143066406;7735;100;100;33.584407806396484;32.40304425557454;0;6.882278919219971;85;110;1;3;1000;984;-1;-1;62461400;10;20;8400;9000;242;9;3;15;255;0;;;;10.246925354003906;;;;;0.14249756932258606;0.15403224527835846;0.17544862627983093;0.18032661080360413;59.70105743408203;59.67902755737305;59.65514373779297;59.67305374145508;-115.98296356201172;-115.98296356201172;-111.76465606689453;-112.22909545898438;0;1;7735;3.000000238418579
a4e93d81-e2f6-47be-92a2-493d6a58a727;27262;203;32.48459243774414;0.9484103322029114;95.43343353271484;33.61280059814453;0.606375515460968;-0.6148513555526733;-0.026444710791110992;-0.6998351216316223;0.04642118513584137;0.7123037576675415;0.025163989514112473;0.10528900474309921;0.008593350648880005;0.12702274322509766;7747;100;100;33.622467041015625;32.96341870625814;0;6.8840203285217285;85;110;1;3;1017;1000;-1;-1;62461416;10;20;8400;9000;242;9;3;15;255;0;;;;10.374431610107422;;;;;0.14177262783050537;0.1545344740152359;0.17432625591754913;0.18098992109298706;59.70029830932617;59.67824935913086;59.65427017211914;59.67222595214844;-116.14305114746094;-116.14305114746094;-111.87238311767578;-112.37346649169922;0;1;7747;3.000000238418579
a4e93d81-e2f6-47be-92a2-493d6a58a727;27263;203;33.046104431152344;0.9585549831390381;95.42301940917969;33.6505012512207;0.6084868311882019;-0.6738256216049194;-0.026470758020877838;-0.6991384029388428;0.04655071347951889;0.7129782438278198;0.02652961201965809;0.11354321241378784;0.008524708449840546;0.1271505355834961;7756;100;100;33.6612548828125;33.524439620971684;0;6.885782241821289;85;110;1;3;1033;1017;-1;-1;62461433;10;20;8400;9000;242;9;3;15;255;0;;;;10.417621612548828;;;;;0.14148107171058655;0.15409839153289795;0.17391839623451233;0.18169385194778442;59.69955825805664;59.67747497558594;59.65339660644531;59.67140579223633;-116.2762222290039;-116.2762222290039;-111.98296356201172;-112.52317810058594;0;1;7756;3.000000238418579
a4e93d81-e2f6-47be-92a2-493d6a58a727;27264;203;33.60820388793945;0.9687403440475464;95.4114761352539;33.68718719482422;0.6101387143135071;-0.7371558547019958;-0.026413362473249435;-0.6984022259712219;0.04655301943421364;0.7137014865875244;0.024197066202759743;0.1214129626750946;-0.009716933593153954;0.12752342224121094;7766;100;100;33.699344635009766;34.086095364888514;0;6.887465000152588;85;110;1;3;1050;1034;-1;-1;62461450;10;20;8400;9000;242;1033;3;15;255;0;;;;10.512466430664062;;;;;0.1401933878660202;0.15484976768493652;0.17360080778598785;0.18117499351501465;59.69883728027344;59.67670440673828;59.652523040771484;59.670589447021484;-116.43083190917969;-116.43083190917969;-112.08789825439453;-112.66273498535156;0;1;7766;3.000000238418579
a4e93d81-e2f6-47be-92a2-493d6a58a727;27265;203;34.170902252197266;0.9789036512374878;95.39889526367188;33.72339630126953;0.6081750392913818;-0.8018385171890259;-0.02634703554213047;-0.6976089477539062;0.04652824252843857;0.7144808173179626;0.024127840995788574;0.1308578997850418;-0.013139719143509865;0.12782573699951172;7777;100;100;33.73689270019531;34.648376909891766;0;6.889124870300293;85;110;1;3;1067;1050;-1;-1;62461466;10;20;8400;9000;242;1033;3;15;255;0;;;;10.652251243591309;;;;;0.13874441385269165;0.1555688977241516;0.17235496640205383;0.18203352391719818;59.698116302490234;59.67594909667969;59.651649475097656;59.669776916503906;-116.59489440917969;-116.59489440917969;-112.19036865234375;-112.8111343383789;0;1;7777;3.000000238418579
a4e93d81-e2f6-47be-92a2-493d6a58a727;27266;203;34.73419189453125;0.9890375137329102;95.38530731201172;33.75905990600586;0.604786217212677;-0.8699768781661987;-0.026361390948295593;-0.6967580318450928;0.04655344784259796;0.715308427810669;0.02289903536438942;0.14054535329341888;-0.002460752846673131;0.1279621124267578;7788;100;100;33.77420425415039;35.211280314127606;0;6.890793800354004;85;110;1;3;1083;1067;-1;-1;62461483;10;20;8400;9000;242;1033;3;15;255;0;;;;10.740500450134277;;;;;0.13842996954917908;0.15583951771259308;0.17110559344291687;0.1827896237373352;59.697410583496094;59.67520523071289;59.650779724121094;59.668975830078125;-116.76268005371094;-116.76268005371094;-112.28893280029297;-112.95319366455078;0;1;7788;3.000000238418579
a4e93d81-e2f6-47be-92a2-493d6a58a727;27267;203;35.29811477661133;0.9991534948348999;95.37046813964844;33.79685974121094;0.6038711071014404;-0.9454447031021118;-0.02632886916399002;-0.6958483457565308;0.046532269567251205;0.7161961793899536;0.02454385906457901;0.1501494199037552;-0.010737859643995762;0.1282329559326172;7796;100;100;33.81393051147461;35.77484582265218;0;6.89229679107666;85;110;1;3;1100;1084;-1;-1;62461500;10;20;8400;9000;242;1033;3;15;255;0;;;;10.777860641479492;;;;;0.13729506731033325;0.155546635389328;0.17117197811603546;0.1832527369260788;59.69674301147461;59.674476623535156;59.6499137878418;59.668182373046875;-116.86670684814453;-116.86670684814453;-112.39955139160156;-113.10942077636719;0;1;7796;3.000000238418579
a4e93d81-e2f6-47be-92a2-493d6a58a727;27268;203;35.8625602722168;1.0092442035675049;95.35437774658203;33.83068084716797;0.5997498631477356;-1.0200637578964233;-0.026298336684703827;-0.6949026584625244;0.04642491415143013;0.7171216011047363;0.01823771372437477;0.1575881391763687;-0.018203353509306908;0.12883949279785156;7808;100;100;33.84988021850586;36.33901049296061;0;6.893868923187256;85;110;1;3;1117;1100;-1;-1;62461516;10;20;8400;9000;242;1033;3;15;255;0;;;;10.90012264251709;;;;;0.13594625890254974;0.15644115209579468;0.16975241899490356;0.18280503153800964;59.69606018066406;59.673744201660156;59.649051666259766;59.667396545410156;-117.06932830810547;-117.06932830810547;-112.49476623535156;-113.2333755493164;0;1;7808;3.000000238418579
a4e93d81-e2f6-47be-92a2-493d6a58a727;27269;203;36.4276237487793;1.0192103385925293;95.33727264404297;33.86653518676758;0.591941773891449;-1.0906500816345215;-0.026373472064733505;-0.6939185857772827;0.04644268751144409;0.7180702090263367;0.020380262285470963;0.1625605970621109;0.0012530344538390636;0.12919139862060547;7819;100;100;33.887630462646484;36.90380433400472;0;6.895446300506592;85;110;1;3;1133;1117;-1;-1;62461533;10;20;8400;9000;242;1033;3;15;255;0;;;;11.0623197555542;;;;;0.13457171618938446;0.15715137124061584;0.16833342611789703;0.18359600007534027;59.695343017578125;59.673004150390625;59.648189544677734;59.666622161865234;-117.21692657470703;-117.21692657470703;-112.6117172241211;-113.37744903564453;0;1;7819;3.000000238418579
a4e93d81-e2f6-47be-92a2-493d6a58a727;27270;203;36.9932746887207;1.0291143655776978;95.31925964355469;33.90196990966797;0.586235761642456;-1.1577423810958862;-0.026677578687667847;-0.6929295063018799;0.04668097198009491;0.7189978361129761;0.019068829715251923;0.16220782697200775;0.039451319724321365;0.12942981719970703;7830;100;100;33.925140380859375;37.46922334035237;0;6.897076606750488;85;110;1;3;1150;1134;-1;-1;62461550;10;20;8400;9000;242;1033;3;15;255;0;;;;11.126070022583008;;;;;0.13487130403518677;0.15662837028503418;0.16748002171516418;0.18373866379261017;59.69459533691406;59.67224884033203;59.647335052490234;59.66586685180664;-117.37818908691406;-117.37818908691406;-112.7359848022461;-113.49687957763672;0;1;7830;3.000000238418579
a4e93d81-e2f6-47be-92a2-493d6a58a727;27271;203;37.5595703125;1.0389779806137085;95.30018615722656;33.93965530395508;0.583652675151825;-1.2237201929092407;-0.027053164318203926;-0.6919763684272766;0.04700193554162979;0.7198801636695862;0.018844598904252052;0.1552373766899109;0.05290546268224716;0.1295337677001953;7837;100;100;33.96493911743164;38.035305658976235;0;6.898695945739746;85;110;1;3;1167;1150;-1;-1;62461566;10;20;8400;9000;242;1033;3;15;255;0;;;;11.216419219970703;;;;;0.13480621576309204;0.15697318315505981;0.16793513298034668;0.18264293670654297;59.693843841552734;59.671478271484375;59.646484375;59.665122985839844;-117.48516082763672;-117.48516082763672;-112.88517761230469;-113.61228942871094;0;1;7837;3.000000238418579
a4e93d81-e2f6-47be-92a2-493d6a58a727;27272;203;38.126522064208984;1.0488399267196655;95.28023529052734;33.97789764404297;0.5839287042617798;-1.2811124324798584;-0.02755436673760414;-0.6910931468009949;0.04749137535691261;0.7206773161888123;0.020162414759397507;0.14231902360916138;0.07843292504549026;0.1298542022705078;7843;100;100;34.0052490234375;38.60205980936686;0;6.9004058837890625;85;110;1;3;1183;1167;-1;-1;62461583;10;20;8400;9000;242;1033;3;15;255;0;;;;11.352700233459473;;;;;0.1345583200454712;0.1568554937839508;0.1677262932062149;0.18205420672893524;59.69306945800781;59.67070388793945;59.6456413269043;59.66438293457031;-117.59139251708984;-117.59139251708984;-113.0560073852539;-113.72012329101562;0;1;7843;3.000000238418579
a4e93d81-e2f6-47be-92a2-493d6a58a727;27273;203;38.69410705566406;1.058694839477539;95.25962829589844;34.01504135131836;0.5828139185905457;-1.3290562629699707;-0.028291191905736923;-0.6903133392333984;0.04825049266219139;0.7213454842567444;0.01929868571460247;0.12289416044950485;0.12219493836164474;0.1300344467163086;7852;100;100;34.04399490356445;39.16945972442626;0;6.902225017547607;85;110;1;3;1200;1184;-1;-1;62461600;10;20;8400;9000;242;9;3;15;255;0;;;;11.50585651397705;;;;;0.13497866690158844;0.15630203485488892;0.16764777898788452;0.18153221905231476;59.692291259765625;59.669925689697266;59.644798278808594;59.66365051269531;-117.73500061035156;-117.73500061035156;-113.23228454589844;-113.80453491210938;0;1;7852;3.000000238418579
a4e93d81-e2f6-47be-92a2-493d6a58a727;27274;203;39.262332916259766;1.068540334701538;95.2381820678711;34.052825927734375;0.5821514129638672;-1.380406379699707;-0.02916586399078369;-0.6896430850028992;0.04917769879102707;0.7218888401985168;0.018408948555588722;0.10352618247270584;0.1489620953798294;0.13013362884521484;7859;100;100;34.083778381347656;39.737522697448725;0;6.904038429260254;85;110;1;3;1217;1200;-1;-1;62461616;10;20;8400;9000;242;9;3;15;255;0;;;;11.560213088989258;;;;;0.1363489329814911;0.1544908881187439;0.1686079502105713;0.1806737780570984;59.69151306152344;59.66914367675781;59.64395523071289;59.66291809082031;-117.85211944580078;-117.85211944580078;-113.4101333618164;-113.89044189453125;0;1;7859;3.000000238418579
a4e93d81-e2f6-47be-92a2-493d6a58a727;27275;203;39.831146240234375;1.0783169269561768;95.21569061279297;34.08892059326172;0.5780416131019592;-1.4332613945007324;-0.030004169791936874;-0.6890902519226074;0.05005127564072609;0.7223221063613892;0.014091888442635536;0.08436921238899231;0.14210112392902374;0.13013935089111328;7870;100;100;34.12188720703125;40.306220817565915;0;6.905877113342285;85;110;1;3;1233;1217;-1;-1;62461633;10;20;8400;9000;242;9;3;15;255;0;;;;11.688958168029785;;;;;0.13737702369689941;0.1542864441871643;0.16956380009651184;0.17886722087860107;59.690738677978516;59.66835403442383;59.64311218261719;59.662174224853516;-118.00798797607422;-118.00798797607422;-113.57969665527344;-113.96748352050781;0;1;7870;3.000000238418579
a4e93d81-e2f6-47be-92a2-493d6a58a727;27276;203;40.40064239501953;1.088049054145813;95.19222259521484;34.128238677978516;0.5780473947525024;-1.4851611852645874;-0.03079192526638508;-0.6886264681816101;0.05095099285244942;0.7226682901382446;0.0182214193046093;0.06868152320384979;0.1407497674226761;0.12996482849121094;7875;100;100;34.163482666015625;40.87561219533284;0;6.907774925231934;85;110;1;3;1250;1234;-1;-1;62461650;10;20;8400;9000;242;9;3;15;255;0;;;;11.851972579956055;;;;;0.13806402683258057;0.15403373539447784;0.1702430248260498;0.17850440740585327;59.689964294433594;59.66757583618164;59.64226150512695;59.66141128540039;-118.07386779785156;-118.07386779785156;-113.7621841430664;-114.08040618896484;0;1;7875;3.000000238418579
a4e93d81-e2f6-47be-92a2-493d6a58a727;27277;203;40.97077941894531;1.0978225469589233;95.16783905029297;34.1661376953125;0.5812188982963562;-1.5364904403686523;-0.03159194812178612;-0.6882421970367432;0.051888443529605865;0.722933292388916;0.017991336062550545;0.05475480109453201;0.14560991525650024;0.13001441955566406;7881;100;100;34.20370864868164;41.4456740061442;0;6.90966796875;85;110;1;3;1267;1250;-1;-1;62461666;10;20;8400;9000;242;9;3;15;255;0;;;;11.972764015197754;;;;;0.13914427161216736;0.15287157893180847;0.17051589488983154;0.178115576505661;59.689186096191406;59.66679763793945;59.64140701293945;59.660640716552734;-118.18456268310547;-118.18456268310547;-113.92987060546875;-114.18321990966797;0;1;7881;3.000000238418579
a4e93d81-e2f6-47be-92a2-493d6a58a727;27278;203;41.54151916503906;1.1075718402862549;95.14252471923828;34.20275115966797;0.5805678367614746;-1.585066556930542;-0.03233761712908745;-0.6879369616508484;0.05277828499674797;0.7231264114379883;0.016615761443972588;0.04204544425010681;0.13744279742240906;0.1297130584716797;7890;100;100;34.24259948730469;42.01638399759928;0;6.911574840545654;85;110;1;3;1283;1267;-1;-1;62461683;10;20;8400;9000;242;9;3;15;255;0;;;;12.03969955444336;;;;;0.1406739354133606;0.15216010808944702;0.1719297617673874;0.17694717645645142;59.68840789794922;59.666011810302734;59.64054489135742;59.65985870361328;-118.33234405517578;-118.33234405517578;-114.08741760253906;-114.28152465820312;0;1;7890;3.000000238418579
